{
  "countries": [
    {
      "name": "Principality of Andorra",
      "code": "AD",
      "latitude": 42.55,
      "longitude": 1.58333,
      "states": [
        {
          "name": "Sant Julià de Loria",
          "latitude": 42.46247,
          "longitude": 1.48247
        },
        {
          "name": "Ordino",
          "latitude": 42.59758,
          "longitude": 1.52573
        },
        {
          "name": "La Massana",
          "latitude": 42.55417,
          "longitude": 1.48333
        },
        {
          "name": "Encamp",
          "latitude": 42.53333,
          "longitude": 1.63333
        },
        {
          "name": "Canillo",
          "latitude": 42.58333,
          "longitude": 1.65833
        },
        {
          "name": "Andorra la Vella",
          "latitude": 42.5045,
          "longitude": 1.49414
        },
        {
          "name": "Escaldes-Engordany",
          "latitude": 42.5,
          "longitude": 1.56667
        }
      ]
    },
    {
      "name": "United Arab Emirates",
      "code": "AE",
      "latitude": 23.75,
      "longitude": 54.5,
      "states": [
        {
          "name": "Umm al Qaywayn",
          "latitude": 25.5,
          "longitude": 55.75
        },
        {
          "name": "Ras Al Khaimah",
          "latitude": 25.66757,
          "longitude": 56.0021
        },
        {
          "name": "Dubai",
          "latitude": 25.0,
          "longitude": 55.33333
        },
        {
          "name": "Sharjah",
          "latitude": 25.31763,
          "longitude": 55.44057
        },
        {
          "name": "Fujairah",
          "latitude": 25.13333,
          "longitude": 56.25
        },
        {
          "name": "Ajman",
          "latitude": 25.38417,
          "longitude": 55.51848
        },
        {
          "name": "Abu Dhabi",
          "latitude": 23.66667,
          "longitude": 54.0
        }
      ]
    },
    {
      "name": "Islamic Republic of Afghanistan",
      "code": "AF",
      "latitude": 33.0,
      "longitude": 66.0,
      "states": [
        {
          "name": "Zabul",
          "latitude": 32.25,
          "longitude": 67.25
        },
        {
          "name": "Maidan Wardak Province",
          "latitude": 34.25,
          "longitude": 68.0
        },
        {
          "name": "Takhar",
          "latitude": 36.66667,
          "longitude": 69.75
        },
        {
          "name": "Sar-e Pol Province",
          "latitude": 35.83333,
          "longitude": 66.16667
        },
        {
          "name": "Samangan",
          "latitude": 36.0,
          "longitude": 67.66667
        },
        {
          "name": "Parwan",
          "latitude": 35.0,
          "longitude": 68.91667
        },
        {
          "name": "Paktika",
          "latitude": 32.41667,
          "longitude": 68.75
        },
        {
          "name": "Paktia",
          "latitude": 33.66667,
          "longitude": 69.33333
        },
        {
          "name": "Oruzgan",
          "latitude": 32.83333,
          "longitude": 66.0
        },
        {
          "name": "Nimroz",
          "latitude": 31.0,
          "longitude": 62.5
        },
        {
          "name": "Nangarhar",
          "latitude": 34.33333,
          "longitude": 70.41667
        },
        {
          "name": "Logar",
          "latitude": 34.0,
          "longitude": 69.25
        },
        {
          "name": "Laghman",
          "latitude": 34.78333,
          "longitude": 70.18333
        },
        {
          "name": "Kunduz",
          "latitude": 36.75,
          "longitude": 68.75
        },
        {
          "name": "Kunar",
          "latitude": 34.95,
          "longitude": 71.13333
        },
        {
          "name": "Kapisa",
          "latitude": 35.0,
          "longitude": 69.58333
        },
        {
          "name": "Kandahar",
          "latitude": 31.0,
          "longitude": 65.75
        },
        {
          "name": "Kabul",
          "latitude": 34.5,
          "longitude": 69.41667
        },
        {
          "name": "Jowzjan",
          "latitude": 36.83333,
          "longitude": 65.83333
        },
        {
          "name": "Herat",
          "latitude": 34.5,
          "longitude": 62.0
        },
        {
          "name": "Helmand",
          "latitude": 31.0,
          "longitude": 64.0
        },
        {
          "name": "Ghowr",
          "latitude": 34.0,
          "longitude": 65.0
        },
        {
          "name": "Ghazni",
          "latitude": 33.33333,
          "longitude": 67.75
        },
        {
          "name": "Faryab",
          "latitude": 36.25,
          "longitude": 64.83333
        },
        {
          "name": "Farah",
          "latitude": 32.5,
          "longitude": 62.5
        },
        {
          "name": "Bamyan",
          "latitude": 34.75,
          "longitude": 67.25
        },
        {
          "name": "Balkh",
          "latitude": 36.75,
          "longitude": 67.0
        },
        {
          "name": "Baghlan",
          "latitude": 35.75,
          "longitude": 69.0
        },
        {
          "name": "Badghis",
          "latitude": 35.0,
          "longitude": 63.75
        },
        {
          "name": "Badakhshan",
          "latitude": 36.75,
          "longitude": 72.0
        },
        {
          "name": "Khowst",
          "latitude": 33.38333,
          "longitude": 69.88333
        },
        {
          "name": "Nuristan",
          "latitude": 35.3,
          "longitude": 70.83333
        },
        {
          "name": "Daykundi",
          "latitude": 33.75,
          "longitude": 66.25
        },
        {
          "name": "Panjshir",
          "latitude": 35.40248,
          "longitude": 69.98291
        }
      ]
    },
    {
      "name": "Antigua and Barbuda",
      "code": "AG",
      "latitude": 17.05,
      "longitude": -61.8,
      "states": [
        {
          "name": "Saint Philip Parish",
          "latitude": 17.05,
          "longitude": -61.71667
        },
        {
          "name": "Saint Peter Parish",
          "latitude": 17.08925,
          "longitude": -61.74819
        },
        {
          "name": "Saint Paul Parish",
          "latitude": 17.03333,
          "longitude": -61.76667
        },
        {
          "name": "Saint Mary Parish",
          "latitude": 17.05,
          "longitude": -61.85
        },
        {
          "name": "Saint John Parish",
          "latitude": 17.1,
          "longitude": -61.85
        },
        {
          "name": "Saint George Parish",
          "latitude": 17.1227,
          "longitude": -61.79679
        },
        {
          "name": "Redonda",
          "latitude": 16.93889,
          "longitude": -62.34556
        },
        {
          "name": "Barbuda",
          "latitude": 17.63333,
          "longitude": -61.8
        }
      ]
    },
    {
      "name": "Republic of Albania",
      "code": "AL",
      "latitude": 41.0,
      "longitude": 20.0,
      "states": [
        {
          "name": "Berat County",
          "latitude": 40.63333,
          "longitude": 20.08333
        },
        {
          "name": "Dibër County",
          "latitude": 41.6,
          "longitude": 20.23333
        },
        {
          "name": "Elbasan County",
          "latitude": 41.06667,
          "longitude": 20.2
        },
        {
          "name": "Gjirokastër County",
          "latitude": 40.21667,
          "longitude": 20.2
        },
        {
          "name": "Korçë County",
          "latitude": 40.61667,
          "longitude": 20.66667
        },
        {
          "name": "Kukës County",
          "latitude": 42.2,
          "longitude": 20.36667
        },
        {
          "name": "Durrës County",
          "latitude": 41.48333,
          "longitude": 19.61667
        },
        {
          "name": "Fier County",
          "latitude": 40.76667,
          "longitude": 19.61667
        },
        {
          "name": "Lezhë County",
          "latitude": 41.8,
          "longitude": 19.86667
        },
        {
          "name": "Shkodër County",
          "latitude": 42.18333,
          "longitude": 19.75
        },
        {
          "name": "Tirana",
          "latitude": 41.26667,
          "longitude": 19.78333
        },
        {
          "name": "Vlorë County",
          "latitude": 40.16667,
          "longitude": 19.8
        }
      ]
    },
    {
      "name": "Republic of Armenia",
      "code": "AM",
      "latitude": 40.25,
      "longitude": 45.0,
      "states": [
        {
          "name": "Ararat",
          "latitude": 39.91667,
          "longitude": 44.83333
        },
        {
          "name": "Syunik",
          "latitude": 39.33333,
          "longitude": 46.25
        },
        {
          "name": "Vayots Dzor",
          "latitude": 39.75,
          "longitude": 45.41667
        },
        {
          "name": "Yerevan",
          "latitude": 40.16667,
          "longitude": 44.5
        },
        {
          "name": "Aragatsotn",
          "latitude": 40.41667,
          "longitude": 44.16667
        },
        {
          "name": "Armavir",
          "latitude": 40.11667,
          "longitude": 44.0
        },
        {
          "name": "Gegharkunik",
          "latitude": 40.25,
          "longitude": 45.41667
        },
        {
          "name": "Kotayk",
          "latitude": 40.41667,
          "longitude": 44.75
        },
        {
          "name": "Lori",
          "latitude": 41.0,
          "longitude": 44.5
        },
        {
          "name": "Shirak",
          "latitude": 40.75,
          "longitude": 43.83333
        },
        {
          "name": "Tavush",
          "latitude": 40.91667,
          "longitude": 45.16667
        }
      ]
    },
    {
      "name": "Republic of Angola",
      "code": "AO",
      "latitude": -12.5,
      "longitude": 18.5,
      "states": [
        {
          "name": "Lunda Sul",
          "latitude": -10.25918,
          "longitude": 20.62489
        },
        {
          "name": "Luanda Norte",
          "latitude": -8.63543,
          "longitude": 19.64852
        },
        {
          "name": "Moxico",
          "latitude": -13.36667,
          "longitude": 20.16667
        },
        {
          "name": "Cuando Cobango",
          "latitude": -15.94761,
          "longitude": 19.3832
        },
        {
          "name": "Zaire",
          "latitude": -6.58717,
          "longitude": 13.51966
        },
        {
          "name": "Uíge",
          "latitude": -7.10719,
          "longitude": 15.44056
        },
        {
          "name": "Malanje",
          "latitude": -9.67548,
          "longitude": 16.82553
        },
        {
          "name": "Luanda",
          "latitude": -8.91667,
          "longitude": 13.33924
        },
        {
          "name": "Cuanza Norte",
          "latitude": -8.91136,
          "longitude": 14.8887
        },
        {
          "name": "Cabinda",
          "latitude": -4.93423,
          "longitude": 12.40532
        },
        {
          "name": "Bengo",
          "latitude": -8.97504,
          "longitude": 13.82743
        },
        {
          "name": "Namibe",
          "latitude": -15.33207,
          "longitude": 12.66002
        },
        {
          "name": "Huíla",
          "latitude": -14.69531,
          "longitude": 15.00014
        },
        {
          "name": "Huambo",
          "latitude": -12.5,
          "longitude": 15.66667
        },
        {
          "name": "Cunene",
          "latitude": -16.51009,
          "longitude": 15.43526
        },
        {
          "name": "Kwanza Sul",
          "latitude": -10.82696,
          "longitude": 15.03197
        },
        {
          "name": "Bíe",
          "latitude": -12.34989,
          "longitude": 17.3031
        },
        {
          "name": "Benguela",
          "latitude": -12.85399,
          "longitude": 13.92825
        }
      ]
    },
    {
      "name": "Argentine Republic",
      "code": "AR",
      "latitude": -34.0,
      "longitude": -64.0,
      "states": [
        {
          "name": "Misiones",
          "latitude": -26.81427,
          "longitude": -54.34387
        },
        {
          "name": "Formosa",
          "latitude": -25.0,
          "longitude": -60.0
        },
        {
          "name": "Buenos Aires F.D.",
          "latitude": -34.6,
          "longitude": -58.45
        },
        {
          "name": "Entre Rios",
          "latitude": -32.0,
          "longitude": -59.0
        },
        {
          "name": "Corrientes",
          "latitude": -29.0,
          "longitude": -58.0
        },
        {
          "name": "Buenos Aires",
          "latitude": -36.0,
          "longitude": -60.0
        },
        {
          "name": "Tucuman",
          "latitude": -27.0,
          "longitude": -65.5
        },
        {
          "name": "Tierra del Fuego",
          "latitude": -54.5,
          "longitude": -67.0
        },
        {
          "name": "Santiago del Estero",
          "latitude": -28.0,
          "longitude": -63.5
        },
        {
          "name": "Santa Fe",
          "latitude": -31.0,
          "longitude": -61.0
        },
        {
          "name": "Santa Cruz",
          "latitude": -49.0,
          "longitude": -70.0
        },
        {
          "name": "San Luis",
          "latitude": -34.0,
          "longitude": -66.0
        },
        {
          "name": "San Juan",
          "latitude": -31.0,
          "longitude": -69.0
        },
        {
          "name": "Salta",
          "latitude": -24.75806,
          "longitude": -65.43457
        },
        {
          "name": "Rio Negro",
          "latitude": -40.0,
          "longitude": -67.0
        },
        {
          "name": "Neuquen",
          "latitude": -39.0,
          "longitude": -70.0
        },
        {
          "name": "Mendoza",
          "latitude": -34.5,
          "longitude": -68.5
        },
        {
          "name": "La Rioja",
          "latitude": -29.58333,
          "longitude": -67.0
        },
        {
          "name": "La Pampa",
          "latitude": -37.0,
          "longitude": -66.0
        },
        {
          "name": "Jujuy",
          "latitude": -23.0,
          "longitude": -66.0
        },
        {
          "name": "Cordoba",
          "latitude": -32.0,
          "longitude": -64.0
        },
        {
          "name": "Chubut",
          "latitude": -44.0,
          "longitude": -69.0
        },
        {
          "name": "Chaco",
          "latitude": -26.33333,
          "longitude": -60.5
        },
        {
          "name": "Catamarca",
          "latitude": -27.0,
          "longitude": -67.0
        }
      ]
    },
    {
      "name": "Republic of Austria",
      "code": "AT",
      "latitude": 47.33333,
      "longitude": 13.33333,
      "states": [
        {
          "name": "Vienna",
          "latitude": 48.2082,
          "longitude": 16.37169
        },
        {
          "name": "Vorarlberg",
          "latitude": 47.25,
          "longitude": 9.91667
        },
        {
          "name": "Tyrol",
          "latitude": 47.25,
          "longitude": 11.33333
        },
        {
          "name": "Styria",
          "latitude": 47.25,
          "longitude": 15.16667
        },
        {
          "name": "Salzburg",
          "latitude": 47.41667,
          "longitude": 13.25
        },
        {
          "name": "Upper Austria",
          "latitude": 48.25,
          "longitude": 14.0
        },
        {
          "name": "Lower Austria",
          "latitude": 48.33333,
          "longitude": 15.75
        },
        {
          "name": "Carinthia",
          "latitude": 46.75,
          "longitude": 13.83333
        },
        {
          "name": "Burgenland",
          "latitude": 47.5,
          "longitude": 16.41667
        }
      ]
    },
    {
      "name": "Commonwealth of Australia",
      "code": "AU",
      "latitude": -25.0,
      "longitude": 135.0,
      "states": [
        {
          "name": "Western Australia",
          "latitude": -25.0,
          "longitude": 122.0
        },
        {
          "name": "South Australia",
          "latitude": -30.0,
          "longitude": 135.0
        },
        {
          "name": "Northern Territory",
          "latitude": -20.0,
          "longitude": 134.0
        },
        {
          "name": "Victoria",
          "latitude": -37.0,
          "longitude": 145.0
        },
        {
          "name": "Tasmania",
          "latitude": -42.0,
          "longitude": 147.0
        },
        {
          "name": "Queensland",
          "latitude": -20.0,
          "longitude": 145.0
        },
        {
          "name": "New South Wales",
          "latitude": -33.0,
          "longitude": 146.0
        },
        {
          "name": "Australian Capital Territory",
          "latitude": -35.5,
          "longitude": 149.0
        }
      ]
    },
    {
      "name": "Republic of Azerbaijan",
      "code": "AZ",
      "latitude": 40.5,
      "longitude": 47.5,
      "states": [
        {
          "name": "Beyləqan",
          "latitude": 39.75,
          "longitude": 47.66667
        },
        {
          "name": "Zangilan District",
          "latitude": 39.08333,
          "longitude": 46.66667
        },
        {
          "name": "Yardimli District",
          "latitude": 38.91667,
          "longitude": 48.25
        },
        {
          "name": "Shusha",
          "latitude": 39.67773,
          "longitude": 46.66398
        },
        {
          "name": "Salyan District",
          "latitude": 39.66667,
          "longitude": 49.0
        },
        {
          "name": "Sabirabad District",
          "latitude": 39.91667,
          "longitude": 48.66667
        },
        {
          "name": "Saatlı",
          "latitude": 39.83333,
          "longitude": 48.41667
        },
        {
          "name": "Bilasuvar District",
          "latitude": 39.5,
          "longitude": 48.41667
        },
        {
          "name": "Neftçala",
          "latitude": 39.33333,
          "longitude": 49.0
        },
        {
          "name": "Nakhchivan",
          "latitude": 39.20991,
          "longitude": 45.41817
        },
        {
          "name": "Masally",
          "latitude": 39.0,
          "longitude": 48.66667
        },
        {
          "name": "Lerik District",
          "latitude": 38.75,
          "longitude": 48.41667
        },
        {
          "name": "Lənkəran",
          "latitude": 38.70071,
          "longitude": 48.75551
        },
        {
          "name": "Lachin Rayon",
          "latitude": 39.65073,
          "longitude": 46.39913
        },
        {
          "name": "Qubadlı",
          "latitude": 39.33333,
          "longitude": 46.58333
        },
        {
          "name": "İmişli",
          "latitude": 39.83333,
          "longitude": 48.08333
        },
        {
          "name": "Fuzuli District",
          "latitude": 39.58333,
          "longitude": 47.33333
        },
        {
          "name": "Jabrayil",
          "latitude": 39.33333,
          "longitude": 47.0
        },
        {
          "name": "Jalilabad",
          "latitude": 39.25,
          "longitude": 48.5
        },
        {
          "name": "Astara",
          "latitude": 38.5,
          "longitude": 48.66667
        },
        {
          "name": "Khojaly",
          "latitude": 39.83333,
          "longitude": 46.75
        },
        {
          "name": "Ağcabǝdi",
          "latitude": 40.0,
          "longitude": 47.41667
        },
        {
          "name": "Ağdam",
          "latitude": 40.0,
          "longitude": 47.0
        },
        {
          "name": "Shirvan",
          "latitude": 39.9604,
          "longitude": 48.88181
        },
        {
          "name": "Lankaran Sahari",
          "latitude": 38.73333,
          "longitude": 48.83333
        },
        {
          "name": "Shusha City",
          "latitude": 39.75,
          "longitude": 46.75
        },
        {
          "name": "Tartar District",
          "latitude": 40.33054,
          "longitude": 46.94289
        },
        {
          "name": "Xankǝndi",
          "latitude": 39.81744,
          "longitude": 46.75318
        },
        {
          "name": "Khojavend",
          "latitude": 39.66667,
          "longitude": 47.0
        },
        {
          "name": "Zərdab",
          "latitude": 40.25,
          "longitude": 47.75
        },
        {
          "name": "Zaqatala District",
          "latitude": 41.58333,
          "longitude": 46.66667
        },
        {
          "name": "Yevlax",
          "latitude": 40.66667,
          "longitude": 47.0
        },
        {
          "name": "Oğuz",
          "latitude": 41.08333,
          "longitude": 47.5
        },
        {
          "name": "Ucar",
          "latitude": 40.41667,
          "longitude": 47.75
        },
        {
          "name": "Tovuz District",
          "latitude": 41.0,
          "longitude": 45.75
        },
        {
          "name": "Şamaxı",
          "latitude": 40.58333,
          "longitude": 48.66667
        },
        {
          "name": "Shaki",
          "latitude": 41.08333,
          "longitude": 47.16667
        },
        {
          "name": "Şǝmkir",
          "latitude": 40.83333,
          "longitude": 46.08333
        },
        {
          "name": "Kurdamir District",
          "latitude": 40.25,
          "longitude": 48.16667
        },
        {
          "name": "Qabala District",
          "latitude": 40.91667,
          "longitude": 47.83333
        },
        {
          "name": "Qusar District",
          "latitude": 41.41667,
          "longitude": 48.25
        },
        {
          "name": "Quba",
          "latitude": 41.16667,
          "longitude": 48.41667
        },
        {
          "name": "Goygol Rayon",
          "latitude": 40.5,
          "longitude": 46.33333
        },
        {
          "name": "Xaçmaz",
          "latitude": 41.58333,
          "longitude": 48.75
        },
        {
          "name": "Kalbajar",
          "latitude": 40.1027,
          "longitude": 46.1747
        },
        {
          "name": "Qazax",
          "latitude": 41.26,
          "longitude": 45.09
        },
        {
          "name": "Goranboy District",
          "latitude": 40.58333,
          "longitude": 46.66667
        },
        {
          "name": "Qax",
          "latitude": 41.33333,
          "longitude": 46.75
        },
        {
          "name": "Ismayilli District",
          "latitude": 40.83333,
          "longitude": 48.16667
        },
        {
          "name": "Göyçay",
          "latitude": 40.58333,
          "longitude": 47.83333
        },
        {
          "name": "Shabran",
          "latitude": 41.18542,
          "longitude": 48.8275
        },
        {
          "name": "Daşkǝsǝn",
          "latitude": 40.41667,
          "longitude": 46.0
        },
        {
          "name": "Balakan District",
          "latitude": 41.75,
          "longitude": 46.41667
        },
        {
          "name": "Barda",
          "latitude": 40.33333,
          "longitude": 47.16667
        },
        {
          "name": "Baki",
          "latitude": 40.39802,
          "longitude": 49.72414
        },
        {
          "name": "Abşeron",
          "latitude": 40.41667,
          "longitude": 49.33333
        },
        {
          "name": "Agsu District",
          "latitude": 40.5,
          "longitude": 48.33333
        },
        {
          "name": "Ağdaş",
          "latitude": 40.58333,
          "longitude": 47.41667
        },
        {
          "name": "Gadabay District",
          "latitude": 40.5,
          "longitude": 45.66667
        },
        {
          "name": "Ağstafa",
          "latitude": 41.25,
          "longitude": 45.5
        },
        {
          "name": "Gǝncǝ",
          "latitude": 40.6937,
          "longitude": 46.34082
        },
        {
          "name": "Mingǝcevir",
          "latitude": 40.76667,
          "longitude": 47.0
        },
        {
          "name": "Naftalan",
          "latitude": 40.50525,
          "longitude": 46.81163
        },
        {
          "name": "Qobustan",
          "latitude": 40.5,
          "longitude": 49.0
        },
        {
          "name": "Samux",
          "latitude": 40.91667,
          "longitude": 46.41667
        },
        {
          "name": "Shaki City",
          "latitude": 41.18333,
          "longitude": 47.16667
        },
        {
          "name": "Siyǝzǝn",
          "latitude": 41.0,
          "longitude": 49.08333
        },
        {
          "name": "Sumqayit",
          "latitude": 40.59466,
          "longitude": 49.62799
        },
        {
          "name": "Xızı",
          "latitude": 40.75,
          "longitude": 49.16667
        },
        {
          "name": "Yevlax City",
          "latitude": 40.58333,
          "longitude": 47.16667
        },
        {
          "name": "Hacıqabul",
          "latitude": 40.08333,
          "longitude": 48.91667
        }
      ]
    },
    {
      "name": "Bosnia and Herzegovina",
      "code": "BA",
      "latitude": 44.25,
      "longitude": 17.83333,
      "states": [
        {
          "name": "Federation of B&H",
          "latitude": 44.0,
          "longitude": 17.58333
        },
        {
          "name": "Srpska",
          "latitude": 44.73333,
          "longitude": 17.4
        },
        {
          "name": "Brčko",
          "latitude": 44.83333,
          "longitude": 18.83333
        }
      ]
    },
    {
      "name": "Barbados",
      "code": "BB",
      "latitude": 13.16453,
      "longitude": -59.55165,
      "states": [
        {
          "name": "Saint Thomas",
          "latitude": 13.17932,
          "longitude": -59.58787
        },
        {
          "name": "Saint Philip",
          "latitude": 13.1339,
          "longitude": -59.46402
        },
        {
          "name": "Saint Peter",
          "latitude": 13.26096,
          "longitude": -59.61585
        },
        {
          "name": "Saint Michael",
          "latitude": 13.12633,
          "longitude": -59.59817
        },
        {
          "name": "Saint Lucy",
          "latitude": 13.30728,
          "longitude": -59.61937
        },
        {
          "name": "Saint Joseph",
          "latitude": 13.2056,
          "longitude": -59.54418
        },
        {
          "name": "Saint John",
          "latitude": 13.17581,
          "longitude": -59.50303
        },
        {
          "name": "Saint James",
          "latitude": 13.21183,
          "longitude": -59.61956
        },
        {
          "name": "Saint George",
          "latitude": 13.13933,
          "longitude": -59.54345
        },
        {
          "name": "Saint Andrew",
          "latitude": 13.23986,
          "longitude": -59.5783
        },
        {
          "name": "Christ Church",
          "latitude": 13.08734,
          "longitude": -59.52418
        }
      ]
    },
    {
      "name": "Bangladesh",
      "code": "BD",
      "latitude": 24.0,
      "longitude": 90.0,
      "states": [
        {
          "name": "Rajshahi Division",
          "latitude": 24.63333,
          "longitude": 89.0
        },
        {
          "name": "Dhaka Division",
          "latitude": 23.83333,
          "longitude": 90.25
        },
        {
          "name": "Chittagong",
          "latitude": 22.91667,
          "longitude": 91.5
        },
        {
          "name": "Khulna Division",
          "latitude": 22.91667,
          "longitude": 89.33333
        },
        {
          "name": "Barisal Division",
          "latitude": 22.5,
          "longitude": 90.33333
        },
        {
          "name": "Sylhet Division",
          "latitude": 24.66667,
          "longitude": 91.66667
        },
        {
          "name": "Rangpur Division",
          "latitude": 25.83333,
          "longitude": 89.0
        },
        {
          "name": "Mymensingh Division",
          "latitude": 24.72937,
          "longitude": 90.38109
        }
      ]
    },
    {
      "name": "Kingdom of Belgium",
      "code": "BE",
      "latitude": 50.75,
      "longitude": 4.5,
      "states": [
        {
          "name": "Brussels Capital",
          "latitude": 50.85332,
          "longitude": 4.35144
        },
        {
          "name": "Wallonia",
          "latitude": 50.5,
          "longitude": 4.75
        },
        {
          "name": "Flanders",
          "latitude": 51.0,
          "longitude": 4.5
        }
      ]
    },
    {
      "name": "Burkina Faso",
      "code": "BF",
      "latitude": 12.5,
      "longitude": -1.66667,
      "states": [
        {
          "name": "Boucle du Mouhoun",
          "latitude": 12.47203,
          "longitude": -3.47305
        },
        {
          "name": "Cascades Region",
          "latitude": 10.38,
          "longitude": -4.5
        },
        {
          "name": "Centre",
          "latitude": 12.37874,
          "longitude": -1.53276
        },
        {
          "name": "Centre-Est",
          "latitude": 11.78922,
          "longitude": -0.35706
        },
        {
          "name": "Centre-Nord",
          "latitude": 13.09829,
          "longitude": -1.0855
        },
        {
          "name": "Centre-Ouest",
          "latitude": 12.25488,
          "longitude": -2.36876
        },
        {
          "name": "Centre-Sud",
          "latitude": 11.67132,
          "longitude": -1.07374
        },
        {
          "name": "Est",
          "latitude": 12.06308,
          "longitude": 0.36349
        },
        {
          "name": "Hauts-Bassins",
          "latitude": 11.28,
          "longitude": -4.32
        },
        {
          "name": "Nord",
          "latitude": 13.58809,
          "longitude": -2.4212
        },
        {
          "name": "Plateau-Central",
          "latitude": 12.58774,
          "longitude": -1.30102
        },
        {
          "name": "Sahel",
          "latitude": 14.03351,
          "longitude": -0.04575
        },
        {
          "name": "Sud-Ouest",
          "latitude": 10.5,
          "longitude": -3.2
        }
      ]
    },
    {
      "name": "Republic of Bulgaria",
      "code": "BG",
      "latitude": 42.66667,
      "longitude": 25.25,
      "states": [
        {
          "name": "Razgrad",
          "latitude": 43.65,
          "longitude": 26.6
        },
        {
          "name": "Montana",
          "latitude": 43.5,
          "longitude": 23.18333
        },
        {
          "name": "Vratsa",
          "latitude": 43.4,
          "longitude": 23.76667
        },
        {
          "name": "Varna",
          "latitude": 43.21667,
          "longitude": 27.6
        },
        {
          "name": "Dobrich",
          "latitude": 43.68333,
          "longitude": 27.9
        },
        {
          "name": "Sofia",
          "latitude": 42.66667,
          "longitude": 23.8
        },
        {
          "name": "Ruse",
          "latitude": 43.7,
          "longitude": 26.0
        },
        {
          "name": "Plovdiv",
          "latitude": 42.26667,
          "longitude": 24.83333
        },
        {
          "name": "Pleven",
          "latitude": 43.5,
          "longitude": 24.63333
        },
        {
          "name": "Pernik",
          "latitude": 42.63333,
          "longitude": 22.88333
        },
        {
          "name": "Pazardzhik",
          "latitude": 42.08333,
          "longitude": 24.16667
        },
        {
          "name": "Lovech",
          "latitude": 43.03333,
          "longitude": 24.56667
        },
        {
          "name": "Haskovo",
          "latitude": 41.83333,
          "longitude": 25.91667
        },
        {
          "name": "Sofia-Capital",
          "latitude": 42.66667,
          "longitude": 23.38333
        },
        {
          "name": "Burgas",
          "latitude": 42.53333,
          "longitude": 27.23333
        },
        {
          "name": "Blagoevgrad",
          "latitude": 41.73333,
          "longitude": 23.45
        },
        {
          "name": "Gabrovo",
          "latitude": 42.95,
          "longitude": 25.25
        },
        {
          "name": "Kardzhali",
          "latitude": 41.53333,
          "longitude": 25.43333
        },
        {
          "name": "Kyustendil",
          "latitude": 42.25,
          "longitude": 22.9
        },
        {
          "name": "Shumen",
          "latitude": 43.33333,
          "longitude": 27.0
        },
        {
          "name": "Silistra",
          "latitude": 43.93333,
          "longitude": 27.05
        },
        {
          "name": "Sliven",
          "latitude": 42.66667,
          "longitude": 26.28333
        },
        {
          "name": "Smolyan",
          "latitude": 41.61667,
          "longitude": 24.65
        },
        {
          "name": "Stara Zagora",
          "latitude": 42.45,
          "longitude": 25.56667
        },
        {
          "name": "Targovishte",
          "latitude": 43.26667,
          "longitude": 26.38333
        },
        {
          "name": "Veliko Tarnovo",
          "latitude": 43.23333,
          "longitude": 25.65
        },
        {
          "name": "Vidin",
          "latitude": 43.81667,
          "longitude": 22.71667
        },
        {
          "name": "Yambol",
          "latitude": 42.33333,
          "longitude": 26.63333
        }
      ]
    },
    {
      "name": "Kingdom of Bahrain",
      "code": "BH",
      "latitude": 26.03333,
      "longitude": 50.55,
      "states": [
        {
          "name": "Muharraq",
          "latitude": 26.25,
          "longitude": 50.61667
        },
        {
          "name": "Manama",
          "latitude": 26.21667,
          "longitude": 50.58333
        },
        {
          "name": "Southern Governorate",
          "latitude": 25.86667,
          "longitude": 50.58333
        },
        {
          "name": "Northern",
          "latitude": 26.15,
          "longitude": 50.46667
        }
      ]
    },
    {
      "name": "Republic of Burundi",
      "code": "BI",
      "latitude": -3.35,
      "longitude": 29.88333,
      "states": [
        {
          "name": "Makamba",
          "latitude": -4.16667,
          "longitude": 29.75278
        },
        {
          "name": "Bururi",
          "latitude": -3.85,
          "longitude": 29.63333
        },
        {
          "name": "Muramvya",
          "latitude": -3.25,
          "longitude": 29.66667
        },
        {
          "name": "Gitega",
          "latitude": -3.5,
          "longitude": 29.95
        },
        {
          "name": "Ruyigi",
          "latitude": -3.45,
          "longitude": 30.31667
        },
        {
          "name": "Cankuzo",
          "latitude": -3.13333,
          "longitude": 30.58333
        },
        {
          "name": "Bubanza",
          "latitude": -3.11667,
          "longitude": 29.4
        },
        {
          "name": "Cibitoke",
          "latitude": -2.88333,
          "longitude": 29.25
        },
        {
          "name": "Ngozi",
          "latitude": -2.875,
          "longitude": 29.925
        },
        {
          "name": "Kayanza",
          "latitude": -3.06667,
          "longitude": 29.66667
        },
        {
          "name": "Muyinga",
          "latitude": -2.83333,
          "longitude": 30.33333
        },
        {
          "name": "Kirundo",
          "latitude": -2.58333,
          "longitude": 30.16667
        },
        {
          "name": "Rutana",
          "latitude": -3.86667,
          "longitude": 30.1
        },
        {
          "name": "Bujumbura Mairie",
          "latitude": -3.3802,
          "longitude": 29.3547
        },
        {
          "name": "Bujumbura Rural",
          "latitude": -3.4627,
          "longitude": 29.46259
        },
        {
          "name": "Rumonge",
          "latitude": -3.96478,
          "longitude": 29.44765
        }
      ]
    },
    {
      "name": "Republic of Benin",
      "code": "BJ",
      "latitude": 9.5,
      "longitude": 2.25,
      "states": [
        {
          "name": "Zou",
          "latitude": 7.25,
          "longitude": 2.16667
        },
        {
          "name": "Ouémé",
          "latitude": 6.61667,
          "longitude": 2.51667
        },
        {
          "name": "Mono",
          "latitude": 6.58333,
          "longitude": 1.83333
        },
        {
          "name": "Borgou",
          "latitude": 9.75,
          "longitude": 2.75
        },
        {
          "name": "Atlantique",
          "latitude": 6.66667,
          "longitude": 2.25
        },
        {
          "name": "Atakora",
          "latitude": 10.75,
          "longitude": 1.66667
        },
        {
          "name": "Alibori",
          "latitude": 11.33333,
          "longitude": 2.91667
        },
        {
          "name": "Collines",
          "latitude": 8.0,
          "longitude": 2.16667
        },
        {
          "name": "Kouffo",
          "latitude": 7.08333,
          "longitude": 1.83333
        },
        {
          "name": "Donga",
          "latitude": 9.33333,
          "longitude": 1.78333
        },
        {
          "name": "Littoral",
          "latitude": 6.36667,
          "longitude": 2.41667
        },
        {
          "name": "Plateau",
          "latitude": 7.16667,
          "longitude": 2.58333
        }
      ]
    },
    {
      "name": "Brunei Darussalam",
      "code": "BN",
      "latitude": 4.5,
      "longitude": 114.66667,
      "states": [
        {
          "name": "Tutong",
          "latitude": 4.63333,
          "longitude": 114.71667
        },
        {
          "name": "Temburong",
          "latitude": 4.58333,
          "longitude": 115.16667
        },
        {
          "name": "Brunei-Muara District",
          "latitude": 4.91667,
          "longitude": 114.91667
        },
        {
          "name": "Belait",
          "latitude": 4.31667,
          "longitude": 114.58333
        }
      ]
    },
    {
      "name": "Plurinational State of Bolivia",
      "code": "BO",
      "latitude": -17.0,
      "longitude": -65.0,
      "states": [
        {
          "name": "Tarija Department",
          "latitude": -21.5,
          "longitude": -64.0
        },
        {
          "name": "Santa Cruz Department",
          "latitude": -17.5,
          "longitude": -61.5
        },
        {
          "name": "Potosí Department",
          "latitude": -20.66667,
          "longitude": -67.0
        },
        {
          "name": "Pando",
          "latitude": -11.33333,
          "longitude": -67.66667
        },
        {
          "name": "Oruro",
          "latitude": -18.66667,
          "longitude": -67.5
        },
        {
          "name": "La Paz Department",
          "latitude": -15.5,
          "longitude": -68.0
        },
        {
          "name": "Cochabamba",
          "latitude": -17.5,
          "longitude": -65.66667
        },
        {
          "name": "Chuquisaca Department",
          "latitude": -20.0,
          "longitude": -64.33333
        },
        {
          "name": "Beni Department",
          "latitude": -14.0,
          "longitude": -65.5
        }
      ]
    },
    {
      "name": "Federative Republic of Brazil",
      "code": "BR",
      "latitude": -10.0,
      "longitude": -55.0,
      "states": [
        {
          "name": "Rio Grande do Norte",
          "latitude": -5.75,
          "longitude": -36.5
        },
        {
          "name": "Piauí",
          "latitude": -7.25,
          "longitude": -42.33333
        },
        {
          "name": "Pernambuco",
          "latitude": -8.33333,
          "longitude": -37.75
        },
        {
          "name": "Paraíba",
          "latitude": -7.25,
          "longitude": -36.5
        },
        {
          "name": "Pará",
          "latitude": -4.0,
          "longitude": -53.0
        },
        {
          "name": "Maranhão",
          "latitude": -5.0,
          "longitude": -45.0
        },
        {
          "name": "Ceará",
          "latitude": -5.0,
          "longitude": -39.5
        },
        {
          "name": "Amapá",
          "latitude": 1.0,
          "longitude": -52.0
        },
        {
          "name": "Alagoas",
          "latitude": -9.58333,
          "longitude": -36.41667
        },
        {
          "name": "Sergipe",
          "latitude": -10.5,
          "longitude": -37.33333
        },
        {
          "name": "São Paulo",
          "latitude": -22.0,
          "longitude": -49.0
        },
        {
          "name": "Santa Catarina",
          "latitude": -27.0,
          "longitude": -50.0
        },
        {
          "name": "Rio Grande do Sul",
          "latitude": -30.0,
          "longitude": -53.5
        },
        {
          "name": "Rio de Janeiro",
          "latitude": -22.25,
          "longitude": -42.5
        },
        {
          "name": "Paraná",
          "latitude": -24.5,
          "longitude": -51.33333
        },
        {
          "name": "Minas Gerais",
          "latitude": -18.0,
          "longitude": -44.0
        },
        {
          "name": "Mato Grosso do Sul",
          "latitude": -20.5,
          "longitude": -55.0
        },
        {
          "name": "Mato Grosso",
          "latitude": -13.0,
          "longitude": -56.0
        },
        {
          "name": "Goiás",
          "latitude": -15.58071,
          "longitude": -49.63623
        },
        {
          "name": "Federal District",
          "latitude": -15.75,
          "longitude": -47.75
        },
        {
          "name": "Espírito Santo",
          "latitude": -20.0,
          "longitude": -40.75
        },
        {
          "name": "Bahia",
          "latitude": -12.0,
          "longitude": -42.0
        },
        {
          "name": "Tocantins",
          "latitude": -10.5,
          "longitude": -48.0
        },
        {
          "name": "Roraima",
          "latitude": 2.25,
          "longitude": -61.25
        },
        {
          "name": "Amazonas",
          "latitude": -3.75,
          "longitude": -64.5
        },
        {
          "name": "Acre",
          "latitude": -9.0,
          "longitude": -70.0
        },
        {
          "name": "Rondônia",
          "latitude": -11.0,
          "longitude": -63.0
        }
      ]
    },
    {
      "name": "Commonwealth of The Bahamas",
      "code": "BS",
      "latitude": 25.04082,
      "longitude": -77.37122,
      "states": [
        {
          "name": "San Salvador",
          "latitude": 24.03667,
          "longitude": -74.49306
        },
        {
          "name": "Ragged Island",
          "latitude": 22.37083,
          "longitude": -75.815
        },
        {
          "name": "Berry Islands",
          "latitude": 25.72111,
          "longitude": -77.83139
        },
        {
          "name": "New Providence",
          "latitude": 25.03333,
          "longitude": -77.28333
        },
        {
          "name": "Mayaguana",
          "latitude": 22.38417,
          "longitude": -72.95389
        },
        {
          "name": "Long Island",
          "latitude": 23.21667,
          "longitude": -75.11167
        },
        {
          "name": "Inagua",
          "latitude": 21.07694,
          "longitude": -73.31167
        },
        {
          "name": "Harbour Island",
          "latitude": 25.48946,
          "longitude": -76.63513
        },
        {
          "name": "Freeport",
          "latitude": 26.52028,
          "longitude": -78.64528
        },
        {
          "name": "Exuma",
          "latitude": 23.56944,
          "longitude": -75.88417
        },
        {
          "name": "Cat Island",
          "latitude": 24.335,
          "longitude": -75.4575
        },
        {
          "name": "Bimini",
          "latitude": 25.70444,
          "longitude": -79.28889
        },
        {
          "name": "Acklins",
          "latitude": 22.43167,
          "longitude": -73.96417
        },
        {
          "name": "Black Point",
          "latitude": 24.09,
          "longitude": -76.39556
        },
        {
          "name": "Central Abaco",
          "latitude": 26.43917,
          "longitude": -77.12972
        },
        {
          "name": "Central Andros",
          "latitude": 24.43889,
          "longitude": -77.95194
        },
        {
          "name": "Central Eleuthera",
          "latitude": 25.135,
          "longitude": -76.14556
        },
        {
          "name": "Crooked Island and Long Cay",
          "latitude": 22.73361,
          "longitude": -74.21528
        },
        {
          "name": "East Grand Bahama",
          "latitude": 26.67167,
          "longitude": -78.14139
        },
        {
          "name": "Grand Cay",
          "latitude": 27.22917,
          "longitude": -78.33056
        },
        {
          "name": "Hope Town",
          "latitude": 26.52445,
          "longitude": -76.97009
        },
        {
          "name": "Mangrove Cay",
          "latitude": 24.16,
          "longitude": -77.78028
        },
        {
          "name": "Moore’s Island",
          "latitude": 26.30083,
          "longitude": -77.55417
        },
        {
          "name": "North Abaco",
          "latitude": 26.78944,
          "longitude": -77.43694
        },
        {
          "name": "North Andros",
          "latitude": 24.76694,
          "longitude": -78.09611
        },
        {
          "name": "North Eleuthera",
          "latitude": 25.46278,
          "longitude": -76.67556
        },
        {
          "name": "Rum Cay",
          "latitude": 23.67806,
          "longitude": -74.85667
        },
        {
          "name": "South Abaco",
          "latitude": 26.04694,
          "longitude": -77.24361
        },
        {
          "name": "South Andros",
          "latitude": 23.92361,
          "longitude": -77.64889
        },
        {
          "name": "South Eleuthera",
          "latitude": 24.80083,
          "longitude": -76.18306
        },
        {
          "name": "Spanish Wells",
          "latitude": 25.54538,
          "longitude": -76.77057
        },
        {
          "name": "West Grand Bahama",
          "latitude": 26.59333,
          "longitude": -78.60056
        }
      ]
    },
    {
      "name": "Kingdom of Bhutan",
      "code": "BT",
      "latitude": 27.5,
      "longitude": 90.5,
      "states": [
        {
          "name": "Bumthang District",
          "latitude": 27.7,
          "longitude": 90.78333
        },
        {
          "name": "Chukha",
          "latitude": 27.0,
          "longitude": 89.55
        },
        {
          "name": "Dagana",
          "latitude": 27.1,
          "longitude": 89.86667
        },
        {
          "name": "Tsirang District",
          "latitude": 27.03333,
          "longitude": 90.16667
        },
        {
          "name": "Sarpang District",
          "latitude": 27.03333,
          "longitude": 90.41667
        },
        {
          "name": "Haa",
          "latitude": 27.33333,
          "longitude": 89.18333
        },
        {
          "name": "Lhuntse",
          "latitude": 27.75,
          "longitude": 91.18333
        },
        {
          "name": "Mongar",
          "latitude": 27.25,
          "longitude": 91.23333
        },
        {
          "name": "Paro",
          "latitude": 27.51667,
          "longitude": 89.4
        },
        {
          "name": "Pemagatshel",
          "latitude": 27.0,
          "longitude": 91.36667
        },
        {
          "name": "Punakha",
          "latitude": 27.7,
          "longitude": 89.85
        },
        {
          "name": "Samtse District",
          "latitude": 27.03333,
          "longitude": 89.08333
        },
        {
          "name": "Samdrup Jongkhar",
          "latitude": 26.91667,
          "longitude": 91.61667
        },
        {
          "name": "Zhemgang District",
          "latitude": 27.08333,
          "longitude": 90.85
        },
        {
          "name": "Trashigang District",
          "latitude": 27.25,
          "longitude": 91.75
        },
        {
          "name": "Thimphu District",
          "latitude": 27.6,
          "longitude": 89.58333
        },
        {
          "name": "Tongsa",
          "latitude": 27.35,
          "longitude": 90.53333
        },
        {
          "name": "Wangdi Phodrang",
          "latitude": 27.5,
          "longitude": 90.13333
        },
        {
          "name": "Gasa",
          "latitude": 27.91313,
          "longitude": 89.70886
        },
        {
          "name": "Trashi Yangste",
          "latitude": 27.58468,
          "longitude": 91.45466
        }
      ]
    },
    {
      "name": "Republic of Botswana",
      "code": "BW",
      "latitude": -22.0,
      "longitude": 24.0,
      "states": [
        {
          "name": "Ngwaketsi",
          "latitude": -25.0,
          "longitude": 25.0
        },
        {
          "name": "South-East",
          "latitude": -25.0,
          "longitude": 25.75
        },
        {
          "name": "North-East",
          "latitude": -21.0,
          "longitude": 27.5
        },
        {
          "name": "North-West",
          "latitude": -20.0,
          "longitude": 22.5
        },
        {
          "name": "Kweneng",
          "latitude": -24.0,
          "longitude": 25.0
        },
        {
          "name": "Kgatleng",
          "latitude": -24.25,
          "longitude": 26.5
        },
        {
          "name": "Kgalagadi",
          "latitude": -25.0,
          "longitude": 22.0
        },
        {
          "name": "Ghanzi",
          "latitude": -22.0,
          "longitude": 22.0
        },
        {
          "name": "Chobe",
          "latitude": -18.5,
          "longitude": 25.0
        },
        {
          "name": "Central",
          "latitude": -22.0,
          "longitude": 26.0
        },
        {
          "name": "City of Francistown",
          "latitude": -21.17,
          "longitude": 27.50778
        },
        {
          "name": "Gaborone",
          "latitude": -24.64639,
          "longitude": 25.91194
        },
        {
          "name": "Jwaneng",
          "latitude": -24.60167,
          "longitude": 24.72806
        },
        {
          "name": "Lobatse",
          "latitude": -25.21417,
          "longitude": 25.68083
        },
        {
          "name": "Selibe Phikwe",
          "latitude": -21.97583,
          "longitude": 27.83472
        },
        {
          "name": "Sowa Town",
          "latitude": -20.56361,
          "longitude": 26.22444
        }
      ]
    },
    {
      "name": "Republic of Belarus",
      "code": "BY",
      "latitude": 53.0,
      "longitude": 28.0,
      "states": [
        {
          "name": "Vitebsk",
          "latitude": 55.0,
          "longitude": 29.5
        },
        {
          "name": "Mogilev",
          "latitude": 54.0,
          "longitude": 30.75
        },
        {
          "name": "Minsk",
          "latitude": 54.0,
          "longitude": 28.0
        },
        {
          "name": "Minsk City",
          "latitude": 53.9,
          "longitude": 27.56667
        },
        {
          "name": "Grodnenskaya",
          "latitude": 53.5,
          "longitude": 24.5
        },
        {
          "name": "Homyel’ Voblasc’",
          "latitude": 52.0,
          "longitude": 30.0
        },
        {
          "name": "Brest",
          "latitude": 52.09976,
          "longitude": 23.7854
        }
      ]
    },
    {
      "name": "Belize",
      "code": "BZ",
      "latitude": 17.25,
      "longitude": -88.75,
      "states": [
        {
          "name": "Toledo District",
          "latitude": 16.33333,
          "longitude": -88.86667
        },
        {
          "name": "Southern District",
          "latitude": 16.83333,
          "longitude": -88.46667
        },
        {
          "name": "Orange Walk District",
          "latitude": 17.76667,
          "longitude": -88.8
        },
        {
          "name": "Corozal District",
          "latitude": 18.21667,
          "longitude": -88.31667
        },
        {
          "name": "Cayo District",
          "latitude": 17.0,
          "longitude": -88.9
        },
        {
          "name": "Belize District",
          "latitude": 17.55,
          "longitude": -88.41667
        }
      ]
    },
    {
      "name": "Canada",
      "code": "CA",
      "latitude": 60.10867,
      "longitude": -113.64258,
      "states": [
        {
          "name": "Alberta",
          "latitude": 52.28333,
          "longitude": -117.469
        },
        {
          "name": "British Columbia",
          "latitude": 53.99983,
          "longitude": -125.0032
        },
        {
          "name": "Manitoba",
          "latitude": 55.00019,
          "longitude": -97.00049
        },
        {
          "name": "New Brunswick",
          "latitude": 46.5001,
          "longitude": -65.99878
        },
        {
          "name": "Northwest Territories",
          "latitude": 69.50061,
          "longitude": -121.50445
        },
        {
          "name": "Nova Scotia",
          "latitude": 45.00015,
          "longitude": -62.99865
        },
        {
          "name": "Nunavut",
          "latitude": 66.03478,
          "longitude": -100.07813
        },
        {
          "name": "Ontario",
          "latitude": 49.25014,
          "longitude": -84.49983
        },
        {
          "name": "Prince Edward Island",
          "latitude": 46.39808,
          "longitude": -63.29844
        },
        {
          "name": "Quebec",
          "latitude": 52.00017,
          "longitude": -71.99907
        },
        {
          "name": "Saskatchewan",
          "latitude": 54.0001,
          "longitude": -106.00099
        },
        {
          "name": "Yukon",
          "latitude": 62.99962,
          "longitude": -135.00404
        },
        {
          "name": "Newfoundland and Labrador",
          "latitude": 52.0,
          "longitude": -56.0
        }
      ]
    },
    {
      "name": "Democratic Republic of the Congo",
      "code": "CD",
      "latitude": -2.5,
      "longitude": 23.5,
      "states": [
        {
          "name": "Tshuapa",
          "latitude": -0.21667,
          "longitude": 20.86667
        },
        {
          "name": "Tshopo",
          "latitude": 0.46667,
          "longitude": 25.21667
        },
        {
          "name": "Tanganyika",
          "latitude": -5.93333,
          "longitude": 29.2
        },
        {
          "name": "South Kivu",
          "latitude": -3.16667,
          "longitude": 28.25
        },
        {
          "name": "Sankuru",
          "latitude": -4.96667,
          "longitude": 23.45
        },
        {
          "name": "North Kivu",
          "latitude": -0.66667,
          "longitude": 28.75
        },
        {
          "name": "Mongala",
          "latitude": 2.06667,
          "longitude": 21.51667
        },
        {
          "name": "Maniema",
          "latitude": -3.0,
          "longitude": 26.0
        },
        {
          "name": "Kasai-Central",
          "latitude": -6.292,
          "longitude": 22.483
        },
        {
          "name": "East Kasai",
          "latitude": -6.18333,
          "longitude": 23.51667
        },
        {
          "name": "Kasai",
          "latitude": -5.35,
          "longitude": 21.41667
        },
        {
          "name": "Ituri",
          "latitude": 1.56667,
          "longitude": 30.25
        },
        {
          "name": "Haut-Uele",
          "latitude": 2.76667,
          "longitude": 27.61667
        },
        {
          "name": "Haut-Lomami",
          "latitude": -8.73333,
          "longitude": 25.0
        },
        {
          "name": "Équateur",
          "latitude": 0.2,
          "longitude": 18.93333
        },
        {
          "name": "Bas-Uele",
          "latitude": 2.8,
          "longitude": 24.73333
        },
        {
          "name": "Lualaba",
          "latitude": -10.71667,
          "longitude": 25.46667
        },
        {
          "name": "Mai-Ndombe",
          "latitude": -2.591,
          "longitude": 19.335
        },
        {
          "name": "Kwilu",
          "latitude": -5.03333,
          "longitude": 18.81667
        },
        {
          "name": "Kwango",
          "latitude": -6.542,
          "longitude": 17.832
        },
        {
          "name": "Kinshasa",
          "latitude": -4.375,
          "longitude": 15.97
        },
        {
          "name": "Bas-Congo",
          "latitude": -5.33333,
          "longitude": 14.33333
        },
        {
          "name": "Haut-Katanga",
          "latitude": -10.46667,
          "longitude": 27.81667
        },
        {
          "name": "Lomami",
          "latitude": -6.21667,
          "longitude": 24.66667
        },
        {
          "name": "Nord-Ubangi",
          "latitude": 3.65,
          "longitude": 21.26667
        },
        {
          "name": "Sud-Ubangi",
          "latitude": 3.08333,
          "longitude": 19.35
        }
      ]
    },
    {
      "name": "Central African Republic",
      "code": "CF",
      "latitude": 7.0,
      "longitude": 21.0,
      "states": [
        {
          "name": "Vakaga",
          "latitude": 9.83333,
          "longitude": 22.5
        },
        {
          "name": "Ouaka",
          "latitude": 6.25,
          "longitude": 20.75
        },
        {
          "name": "Mbomou",
          "latitude": 5.5,
          "longitude": 23.33333
        },
        {
          "name": "Haut-Mbomou",
          "latitude": 6.33333,
          "longitude": 25.66667
        },
        {
          "name": "Haute-Kotto",
          "latitude": 7.41667,
          "longitude": 23.0
        },
        {
          "name": "Basse-Kotto",
          "latitude": 5.0,
          "longitude": 21.36667
        },
        {
          "name": "Bamingui-Bangoran",
          "latitude": 8.41667,
          "longitude": 20.66667
        },
        {
          "name": "Sangha-Mbaéré",
          "latitude": 3.5,
          "longitude": 16.16667
        },
        {
          "name": "Ouham-Pendé",
          "latitude": 6.75,
          "longitude": 16.08333
        },
        {
          "name": "Ouham",
          "latitude": 6.68868,
          "longitude": 17.29882
        },
        {
          "name": "Ombella-M'Poko",
          "latitude": 5.08333,
          "longitude": 18.0
        },
        {
          "name": "Nana-Mambéré",
          "latitude": 5.97122,
          "longitude": 15.26276
        },
        {
          "name": "Lobaye",
          "latitude": 4.16667,
          "longitude": 17.66667
        },
        {
          "name": "Kémo",
          "latitude": 5.86667,
          "longitude": 19.2
        },
        {
          "name": "Mambéré-Kadéï",
          "latitude": 4.5,
          "longitude": 16.0
        },
        {
          "name": "Nana-Grébizi",
          "latitude": 7.08333,
          "longitude": 19.33333
        },
        {
          "name": "Bangui",
          "latitude": 4.38333,
          "longitude": 18.56667
        },
        {
          "name": "Mambéré",
          "latitude": 4.89934,
          "longitude": 15.87112
        },
        {
          "name": "Ouham-Fafa",
          "latitude": 7.27678,
          "longitude": 18.2469
        },
        {
          "name": "Lim-Pendé",
          "latitude": 7.17785,
          "longitude": 16.34001
        }
      ]
    },
    {
      "name": "Republic of the Congo",
      "code": "CG",
      "latitude": -1.0,
      "longitude": 15.5,
      "states": [
        {
          "name": "Sangha",
          "latitude": 1.33333,
          "longitude": 15.5
        },
        {
          "name": "Pool",
          "latitude": -4.25,
          "longitude": 14.6
        },
        {
          "name": "Plateaux",
          "latitude": -2.38333,
          "longitude": 15.15
        },
        {
          "name": "Niari",
          "latitude": -3.01436,
          "longitude": 12.34863
        },
        {
          "name": "Likouala",
          "latitude": 2.0,
          "longitude": 17.5
        },
        {
          "name": "Lékoumou",
          "latitude": -3.1,
          "longitude": 13.53333
        },
        {
          "name": "Kouilou",
          "latitude": -4.19577,
          "longitude": 11.99982
        },
        {
          "name": "Cuvette",
          "latitude": -0.5,
          "longitude": 16.0
        },
        {
          "name": "Bouenza",
          "latitude": -4.1629,
          "longitude": 13.71094
        },
        {
          "name": "Brazzaville",
          "latitude": -4.2657,
          "longitude": 15.28048
        },
        {
          "name": "Cuvette-Ouest",
          "latitude": -0.16667,
          "longitude": 14.56667
        },
        {
          "name": "Pointe-Noire",
          "latitude": -4.79029,
          "longitude": 11.87622
        }
      ]
    },
    {
      "name": "Switzerland",
      "code": "CH",
      "latitude": 47.00016,
      "longitude": 8.01427,
      "states": [
        {
          "name": "Zurich",
          "latitude": 47.41667,
          "longitude": 8.66667
        },
        {
          "name": "Zug",
          "latitude": 47.15886,
          "longitude": 8.53866
        },
        {
          "name": "Vaud",
          "latitude": 46.61671,
          "longitude": 6.64496
        },
        {
          "name": "Valais",
          "latitude": 46.22925,
          "longitude": 7.45972
        },
        {
          "name": "Uri",
          "latitude": 46.7847,
          "longitude": 8.64175
        },
        {
          "name": "Ticino",
          "latitude": 46.28455,
          "longitude": 8.79065
        },
        {
          "name": "Thurgau",
          "latitude": 47.5562,
          "longitude": 9.07686
        },
        {
          "name": "Solothurn",
          "latitude": 47.21071,
          "longitude": 7.52048
        },
        {
          "name": "Schwyz",
          "latitude": 47.0405,
          "longitude": 8.74101
        },
        {
          "name": "Schaffhausen",
          "latitude": 47.71034,
          "longitude": 8.63388
        },
        {
          "name": "Saint Gallen",
          "latitude": 47.25,
          "longitude": 9.25
        },
        {
          "name": "Obwalden",
          "latitude": 46.85867,
          "longitude": 8.20984
        },
        {
          "name": "Nidwalden",
          "latitude": 46.92739,
          "longitude": 8.41028
        },
        {
          "name": "Neuchâtel",
          "latitude": 46.99087,
          "longitude": 6.79767
        },
        {
          "name": "Lucerne",
          "latitude": 47.16667,
          "longitude": 8.16667
        },
        {
          "name": "Jura",
          "latitude": 47.37266,
          "longitude": 7.16802
        },
        {
          "name": "Grisons",
          "latitude": 46.6587,
          "longitude": 9.62296
        },
        {
          "name": "Glarus",
          "latitude": 46.97559,
          "longitude": 9.07318
        },
        {
          "name": "Geneva",
          "latitude": 46.19673,
          "longitude": 6.11044
        },
        {
          "name": "Fribourg",
          "latitude": 46.70834,
          "longitude": 7.10311
        },
        {
          "name": "Bern",
          "latitude": 46.87251,
          "longitude": 7.59563
        },
        {
          "name": "Basel-City",
          "latitude": 47.5669,
          "longitude": 7.61519
        },
        {
          "name": "Basel-Landschaft",
          "latitude": 47.50438,
          "longitude": 7.70444
        },
        {
          "name": "Appenzell Ausserrhoden",
          "latitude": 47.36293,
          "longitude": 9.28283
        },
        {
          "name": "Appenzell Innerrhoden",
          "latitude": 47.31262,
          "longitude": 9.40562
        },
        {
          "name": "Aargau",
          "latitude": 47.39557,
          "longitude": 8.17214
        }
      ]
    },
    {
      "name": "Republic of Côte d’Ivoire",
      "code": "CI",
      "latitude": 8.0,
      "longitude": -5.5,
      "states": [
        {
          "name": "Yamoussoukro",
          "latitude": 6.81667,
          "longitude": -5.28333
        },
        {
          "name": "Bas-Sassandra District",
          "latitude": 5.49929,
          "longitude": -6.66085
        },
        {
          "name": "Comoé District",
          "latitude": 5.50386,
          "longitude": -3.25105
        },
        {
          "name": "Denguélé District",
          "latitude": 9.49712,
          "longitude": -7.37629
        },
        {
          "name": "Gôh-Djiboua",
          "latitude": 6.13184,
          "longitude": -5.94893
        },
        {
          "name": "Lacs District",
          "latitude": 7.03125,
          "longitude": -4.44848
        },
        {
          "name": "Lagunes District",
          "latitude": 5.87068,
          "longitude": -4.29862
        },
        {
          "name": "Montagnes",
          "latitude": 6.95434,
          "longitude": -7.62897
        },
        {
          "name": "Sassandra-Marahoué",
          "latitude": 6.96585,
          "longitude": -6.50734
        },
        {
          "name": "Savanes District",
          "latitude": 9.48829,
          "longitude": -5.49419
        },
        {
          "name": "Vallée du Bandama District",
          "latitude": 8.25011,
          "longitude": -4.85458
        },
        {
          "name": "Woroba",
          "latitude": 7.99044,
          "longitude": -6.62544
        },
        {
          "name": "Zanzan District",
          "latitude": 8.50016,
          "longitude": -3.21384
        },
        {
          "name": "Abidjan Autonomous District",
          "latitude": 5.36289,
          "longitude": -3.9992
        }
      ]
    },
    {
      "name": "Republic of Chile",
      "code": "CL",
      "latitude": -30.0,
      "longitude": -71.0,
      "states": [
        {
          "name": "Valparaíso",
          "latitude": -32.75,
          "longitude": -71.33333
        },
        {
          "name": "Tarapacá",
          "latitude": -20.0,
          "longitude": -69.33333
        },
        {
          "name": "Santiago Metropolitan",
          "latitude": -33.47269,
          "longitude": -70.64724
        },
        {
          "name": "Maule Region",
          "latitude": -35.5,
          "longitude": -71.5
        },
        {
          "name": "Los Lagos Region",
          "latitude": -42.59889,
          "longitude": -73.96048
        },
        {
          "name": "O'Higgins Region",
          "latitude": -34.5,
          "longitude": -71.0
        },
        {
          "name": "Coquimbo Region",
          "latitude": -30.75,
          "longitude": -71.0
        },
        {
          "name": "Biobío",
          "latitude": -37.375,
          "longitude": -72.45
        },
        {
          "name": "Atacama",
          "latitude": -27.5,
          "longitude": -70.0
        },
        {
          "name": "Araucanía",
          "latitude": -38.5,
          "longitude": -72.0
        },
        {
          "name": "Antofagasta",
          "latitude": -23.5,
          "longitude": -69.0
        },
        {
          "name": "Aysén",
          "latitude": -46.5,
          "longitude": -73.5
        },
        {
          "name": "Region of Magallanes",
          "latitude": -52.50026,
          "longitude": -73.00067
        },
        {
          "name": "Arica y Parinacota Region",
          "latitude": -18.57336,
          "longitude": -69.46106
        },
        {
          "name": "Los Ríos Region",
          "latitude": -40.01499,
          "longitude": -72.51526
        },
        {
          "name": "Ñuble",
          "latitude": -36.62291,
          "longitude": -72.21643
        }
      ]
    },
    {
      "name": "Republic of Cameroon",
      "code": "CM",
      "latitude": 6.0,
      "longitude": 12.5,
      "states": [
        {
          "name": "South-West",
          "latitude": 5.2,
          "longitude": 9.3
        },
        {
          "name": "South",
          "latitude": 2.75,
          "longitude": 11.58333
        },
        {
          "name": "West",
          "latitude": 5.5,
          "longitude": 10.66667
        },
        {
          "name": "North-West",
          "latitude": 6.36667,
          "longitude": 10.36667
        },
        {
          "name": "North",
          "latitude": 8.5,
          "longitude": 14.0
        },
        {
          "name": "Littoral",
          "latitude": 4.26667,
          "longitude": 10.13333
        },
        {
          "name": "Far North",
          "latitude": 11.0,
          "longitude": 14.5
        },
        {
          "name": "East",
          "latitude": 3.83333,
          "longitude": 14.16667
        },
        {
          "name": "Centre",
          "latitude": 4.75,
          "longitude": 11.83333
        },
        {
          "name": "Adamaoua",
          "latitude": 6.83333,
          "longitude": 13.25
        }
      ]
    },
    {
      "name": "People’s Republic of China",
      "code": "CN",
      "latitude": 35.0,
      "longitude": 105.0,
      "states": [
        {
          "name": "Tibet",
          "latitude": 31.66667,
          "longitude": 88.0
        },
        {
          "name": "Qinghai",
          "latitude": 36.0,
          "longitude": 96.0
        },
        {
          "name": "Xinjiang",
          "latitude": 41.5,
          "longitude": 85.5
        },
        {
          "name": "Zhejiang",
          "latitude": 29.16667,
          "longitude": 120.0
        },
        {
          "name": "Yunnan",
          "latitude": 25.0,
          "longitude": 101.5
        },
        {
          "name": "Tianjin",
          "latitude": 39.33333,
          "longitude": 117.33333
        },
        {
          "name": "Sichuan",
          "latitude": 30.5,
          "longitude": 102.66667
        },
        {
          "name": "Shanxi",
          "latitude": 37.66667,
          "longitude": 112.25
        },
        {
          "name": "Shanghai",
          "latitude": 31.16667,
          "longitude": 121.41667
        },
        {
          "name": "Shandong",
          "latitude": 36.33333,
          "longitude": 118.25
        },
        {
          "name": "Shaanxi",
          "latitude": 36.0,
          "longitude": 109.0
        },
        {
          "name": "Ningxia",
          "latitude": 37.25,
          "longitude": 106.0
        },
        {
          "name": "Jiangxi",
          "latitude": 27.66667,
          "longitude": 115.66667
        },
        {
          "name": "Jiangsu",
          "latitude": 33.0,
          "longitude": 119.83333
        },
        {
          "name": "Hunan",
          "latitude": 27.66667,
          "longitude": 111.75
        },
        {
          "name": "Hubei",
          "latitude": 31.0,
          "longitude": 112.25
        },
        {
          "name": "Henan",
          "latitude": 34.0,
          "longitude": 113.66667
        },
        {
          "name": "Hebei",
          "latitude": 39.0,
          "longitude": 115.66667
        },
        {
          "name": "Hainan",
          "latitude": 19.25,
          "longitude": 109.75
        },
        {
          "name": "Guizhou",
          "latitude": 27.0,
          "longitude": 107.0
        },
        {
          "name": "Guangxi",
          "latitude": 24.0,
          "longitude": 109.0
        },
        {
          "name": "Guangdong",
          "latitude": 23.5,
          "longitude": 113.25
        },
        {
          "name": "Gansu",
          "latitude": 37.75,
          "longitude": 102.75
        },
        {
          "name": "Fujian",
          "latitude": 26.25,
          "longitude": 118.0
        },
        {
          "name": "Chongqing",
          "latitude": 30.08333,
          "longitude": 107.83333
        },
        {
          "name": "Anhui",
          "latitude": 31.91667,
          "longitude": 117.16667
        },
        {
          "name": "Inner Mongolia",
          "latitude": 43.5,
          "longitude": 114.75
        },
        {
          "name": "Liaoning",
          "latitude": 41.25,
          "longitude": 122.66667
        },
        {
          "name": "Jilin",
          "latitude": 43.58333,
          "longitude": 126.16667
        },
        {
          "name": "Heilongjiang",
          "latitude": 47.75,
          "longitude": 128.0
        },
        {
          "name": "Beijing",
          "latitude": 39.91691,
          "longitude": 116.39706
        }
      ]
    },
    {
      "name": "Republic of Colombia",
      "code": "CO",
      "latitude": 4.0,
      "longitude": -73.25,
      "states": [
        {
          "name": "Vichada Department",
          "latitude": 5.0,
          "longitude": -69.5
        },
        {
          "name": "Vaupés",
          "latitude": 0.75,
          "longitude": -70.75
        },
        {
          "name": "Valle del Cauca Department",
          "latitude": 3.75,
          "longitude": -76.5
        },
        {
          "name": "Tolima Department",
          "latitude": 4.0,
          "longitude": -75.25
        },
        {
          "name": "Sucre Department",
          "latitude": 9.0,
          "longitude": -75.0
        },
        {
          "name": "Santander Department",
          "latitude": 6.83333,
          "longitude": -73.41667
        },
        {
          "name": "San Andres y Providencia",
          "latitude": 12.52449,
          "longitude": -81.71983
        },
        {
          "name": "Risaralda Department",
          "latitude": 5.0,
          "longitude": -76.0
        },
        {
          "name": "Quindío Department",
          "latitude": 4.5,
          "longitude": -75.66667
        },
        {
          "name": "Putumayo Department",
          "latitude": 0.5,
          "longitude": -76.0
        },
        {
          "name": "Norte de Santander Department",
          "latitude": 8.0,
          "longitude": -73.0
        },
        {
          "name": "Nariño",
          "latitude": 1.5,
          "longitude": -78.0
        },
        {
          "name": "Meta Department",
          "latitude": 3.5,
          "longitude": -73.0
        },
        {
          "name": "Magdalena Department",
          "latitude": 10.0,
          "longitude": -74.5
        },
        {
          "name": "La Guajira Department",
          "latitude": 11.5,
          "longitude": -72.5
        },
        {
          "name": "Huila Department",
          "latitude": 2.5,
          "longitude": -75.58333
        },
        {
          "name": "Guaviare Department",
          "latitude": 1.91667,
          "longitude": -72.0
        },
        {
          "name": "Guainía Department",
          "latitude": 2.5,
          "longitude": -69.0
        },
        {
          "name": "Cundinamarca",
          "latitude": 5.0,
          "longitude": -74.16667
        },
        {
          "name": "Córdoba",
          "latitude": 8.33333,
          "longitude": -75.66667
        },
        {
          "name": "Chocó",
          "latitude": 6.0,
          "longitude": -77.0
        },
        {
          "name": "Cesar Department",
          "latitude": 9.33333,
          "longitude": -73.5
        },
        {
          "name": "Cauca Department",
          "latitude": 2.5,
          "longitude": -76.83333
        },
        {
          "name": "Casanare Department",
          "latitude": 5.5,
          "longitude": -71.5
        },
        {
          "name": "Caquetá",
          "latitude": 0.75,
          "longitude": -74.0
        },
        {
          "name": "Caldas Department",
          "latitude": 5.26667,
          "longitude": -75.33333
        },
        {
          "name": "Boyacá",
          "latitude": 5.66667,
          "longitude": -73.0
        },
        {
          "name": "Bolívar",
          "latitude": 9.0,
          "longitude": -74.33333
        },
        {
          "name": "Bogota D.C.",
          "latitude": 4.25,
          "longitude": -74.18333
        },
        {
          "name": "Atlántico",
          "latitude": 10.75,
          "longitude": -75.0
        },
        {
          "name": "Arauca Department",
          "latitude": 6.66667,
          "longitude": -71.0
        },
        {
          "name": "Antioquia",
          "latitude": 7.0,
          "longitude": -75.5
        },
        {
          "name": "Amazonas Department",
          "latitude": -1.16667,
          "longitude": -71.5
        }
      ]
    },
    {
      "name": "Republic of Costa Rica",
      "code": "CR",
      "latitude": 10.0,
      "longitude": -84.0,
      "states": [
        {
          "name": "San José",
          "latitude": 9.66667,
          "longitude": -84.0
        },
        {
          "name": "Puntarenas Province",
          "latitude": 9.97794,
          "longitude": -84.83068
        },
        {
          "name": "Limón Province",
          "latitude": 10.0,
          "longitude": -83.21667
        },
        {
          "name": "Heredia Province",
          "latitude": 10.33333,
          "longitude": -84.0
        },
        {
          "name": "Guanacaste Province",
          "latitude": 10.5,
          "longitude": -85.25
        },
        {
          "name": "Cartago Province",
          "latitude": 9.83333,
          "longitude": -83.75
        },
        {
          "name": "Alajuela Province",
          "latitude": 10.5,
          "longitude": -84.5
        }
      ]
    },
    {
      "name": "Republic of Cuba",
      "code": "CU",
      "latitude": 22.0,
      "longitude": -79.5,
      "states": [
        {
          "name": "Villa Clara Province",
          "latitude": 22.56667,
          "longitude": -80.0
        },
        {
          "name": "Santiago de Cuba Province",
          "latitude": 20.2,
          "longitude": -75.93333
        },
        {
          "name": "Sancti Spíritus Province",
          "latitude": 21.91667,
          "longitude": -79.41667
        },
        {
          "name": "Pinar del Río",
          "latitude": 22.41667,
          "longitude": -83.83333
        },
        {
          "name": "Matanzas Province",
          "latitude": 22.66667,
          "longitude": -81.16667
        },
        {
          "name": "Las Tunas Province",
          "latitude": 21.1,
          "longitude": -76.9
        },
        {
          "name": "Isla de la Juventud",
          "latitude": 21.7,
          "longitude": -82.81667
        },
        {
          "name": "Holguín Province",
          "latitude": 20.75,
          "longitude": -75.91667
        },
        {
          "name": "Guantánamo Province",
          "latitude": 20.21667,
          "longitude": -74.86667
        },
        {
          "name": "Granma Province",
          "latitude": 20.28333,
          "longitude": -76.86667
        },
        {
          "name": "Havana",
          "latitude": 23.08333,
          "longitude": -82.3
        },
        {
          "name": "Cienfuegos Province",
          "latitude": 22.26667,
          "longitude": -80.45
        },
        {
          "name": "Ciego de Ávila Province",
          "latitude": 21.96667,
          "longitude": -78.63333
        },
        {
          "name": "Camagüey",
          "latitude": 21.35,
          "longitude": -77.85
        },
        {
          "name": "Artemisa",
          "latitude": 22.814,
          "longitude": -82.75606
        },
        {
          "name": "Mayabeque",
          "latitude": 22.96155,
          "longitude": -82.14718
        }
      ]
    },
    {
      "name": "Republic of Cabo Verde",
      "code": "CV",
      "latitude": 16.0,
      "longitude": -24.0,
      "states": [
        {
          "name": "Tarrafal",
          "latitude": 15.26667,
          "longitude": -23.71667
        },
        {
          "name": "São Vicente",
          "latitude": 16.83333,
          "longitude": -25.0
        },
        {
          "name": "Santa Catarina",
          "latitude": 15.1,
          "longitude": -23.7
        },
        {
          "name": "Sal",
          "latitude": 16.75,
          "longitude": -22.91667
        },
        {
          "name": "Ribeira Grande",
          "latitude": 17.13333,
          "longitude": -25.11667
        },
        {
          "name": "Praia",
          "latitude": 14.95,
          "longitude": -23.51667
        },
        {
          "name": "Paul",
          "latitude": 17.11667,
          "longitude": -25.01667
        },
        {
          "name": "Maio",
          "latitude": 15.21667,
          "longitude": -23.16667
        },
        {
          "name": "Brava",
          "latitude": 14.86667,
          "longitude": -24.7
        },
        {
          "name": "Boa Vista",
          "latitude": 16.08333,
          "longitude": -22.83333
        },
        {
          "name": "Mosteiros",
          "latitude": 15.0,
          "longitude": -24.35
        },
        {
          "name": "Santa Cruz",
          "latitude": 15.1,
          "longitude": -23.56667
        },
        {
          "name": "São Domingos",
          "latitude": 15.01667,
          "longitude": -23.53333
        },
        {
          "name": "São Filipe",
          "latitude": 14.93333,
          "longitude": -24.43333
        },
        {
          "name": "São Miguel",
          "latitude": 15.2,
          "longitude": -23.65
        },
        {
          "name": "Porto Novo",
          "latitude": 17.01667,
          "longitude": -25.2
        },
        {
          "name": "Ribeira Brava",
          "latitude": 16.61667,
          "longitude": -24.2
        },
        {
          "name": "Santa Catarina do Fogo",
          "latitude": 14.9,
          "longitude": -24.33333
        },
        {
          "name": "São Salvador do Mundo",
          "latitude": 15.08333,
          "longitude": -23.63333
        },
        {
          "name": "Tarrafal de São Nicolau",
          "latitude": 16.6,
          "longitude": -24.35
        },
        {
          "name": "São Lourenço dos Órgãos",
          "latitude": 15.06667,
          "longitude": -23.6
        },
        {
          "name": "Ribeira Grande de Santiago",
          "latitude": 14.98333,
          "longitude": -23.65
        }
      ]
    },
    {
      "name": "Republic of Cyprus",
      "code": "CY",
      "latitude": 35.0,
      "longitude": 33.0,
      "states": [
        {
          "name": "Pafos",
          "latitude": 34.9,
          "longitude": 32.51667
        },
        {
          "name": "Nicosia",
          "latitude": 35.06667,
          "longitude": 33.1
        },
        {
          "name": "Limassol",
          "latitude": 34.76667,
          "longitude": 32.93333
        },
        {
          "name": "Larnaka",
          "latitude": 34.91521,
          "longitude": 33.52615
        },
        {
          "name": "Keryneia",
          "latitude": 35.28333,
          "longitude": 33.25
        },
        {
          "name": "Ammochostos",
          "latitude": 35.33333,
          "longitude": 33.86667
        }
      ]
    },
    {
      "name": "Czechia",
      "code": "CZ",
      "latitude": 49.75,
      "longitude": 15.0,
      "states": [
        {
          "name": "Prague",
          "latitude": 50.08333,
          "longitude": 14.46667
        },
        {
          "name": "South Moravian",
          "latitude": 49.20122,
          "longitude": 16.61339
        },
        {
          "name": "Jihočeský kraj",
          "latitude": 49.08333,
          "longitude": 14.5
        },
        {
          "name": "Vysočina",
          "latitude": 49.41667,
          "longitude": 15.5
        },
        {
          "name": "Karlovarský kraj",
          "latitude": 50.16667,
          "longitude": 12.66667
        },
        {
          "name": "Královéhradecký kraj",
          "latitude": 50.41667,
          "longitude": 15.91667
        },
        {
          "name": "Liberecký kraj",
          "latitude": 50.75,
          "longitude": 15.0
        },
        {
          "name": "Olomoucký",
          "latitude": 49.75,
          "longitude": 17.16667
        },
        {
          "name": "Moravskoslezský",
          "latitude": 49.83333,
          "longitude": 18.0
        },
        {
          "name": "Pardubický",
          "latitude": 49.83333,
          "longitude": 16.08333
        },
        {
          "name": "Plzeň Region",
          "latitude": 49.5,
          "longitude": 13.16667
        },
        {
          "name": "Central Bohemia",
          "latitude": 50.12718,
          "longitude": 14.1964
        },
        {
          "name": "Ústecký kraj",
          "latitude": 50.5,
          "longitude": 13.83333
        },
        {
          "name": "Zlín",
          "latitude": 49.16667,
          "longitude": 17.75
        }
      ]
    },
    {
      "name": "Federal Republic of Germany",
      "code": "DE",
      "latitude": 51.5,
      "longitude": 10.5,
      "states": [
        {
          "name": "Thuringia",
          "latitude": 50.91667,
          "longitude": 11.0
        },
        {
          "name": "Schleswig-Holstein",
          "latitude": 54.2,
          "longitude": 9.75
        },
        {
          "name": "Saxony-Anhalt",
          "latitude": 52.0,
          "longitude": 11.7333
        },
        {
          "name": "Saxony",
          "latitude": 51.0,
          "longitude": 13.25
        },
        {
          "name": "Saarland",
          "latitude": 49.40472,
          "longitude": 6.96083
        },
        {
          "name": "Rheinland-Pfalz",
          "latitude": 49.66667,
          "longitude": 7.5
        },
        {
          "name": "North Rhine-Westphalia",
          "latitude": 51.21895,
          "longitude": 6.76339
        },
        {
          "name": "Lower Saxony",
          "latitude": 52.83333,
          "longitude": 9.16667
        },
        {
          "name": "Mecklenburg-Vorpommern",
          "latitude": 53.83333,
          "longitude": 12.5
        },
        {
          "name": "Hesse",
          "latitude": 50.55,
          "longitude": 9.0
        },
        {
          "name": "Hamburg",
          "latitude": 53.58333,
          "longitude": 10.0
        },
        {
          "name": "City state Bremen",
          "latitude": 53.08333,
          "longitude": 8.83333
        },
        {
          "name": "Brandenburg",
          "latitude": 52.45905,
          "longitude": 13.01582
        },
        {
          "name": "State of Berlin",
          "latitude": 52.5,
          "longitude": 13.41667
        },
        {
          "name": "Bavaria",
          "latitude": 49.0,
          "longitude": 11.5
        },
        {
          "name": "Baden-Wurttemberg",
          "latitude": 48.5,
          "longitude": 9.0
        }
      ]
    },
    {
      "name": "Republic of Djibouti",
      "code": "DJ",
      "latitude": 11.83333,
      "longitude": 42.5,
      "states": [
        {
          "name": "Tadjourah",
          "latitude": 12.0,
          "longitude": 42.5
        },
        {
          "name": "Obock",
          "latitude": 12.25007,
          "longitude": 43.08369
        },
        {
          "name": "Djibouti",
          "latitude": 11.56,
          "longitude": 43.06
        },
        {
          "name": "Dikhil",
          "latitude": 11.41667,
          "longitude": 42.16667
        },
        {
          "name": "Ali Sabieh",
          "latitude": 11.2,
          "longitude": 42.94
        },
        {
          "name": "Arta",
          "latitude": 11.5,
          "longitude": 42.75
        }
      ]
    },
    {
      "name": "Kingdom of Denmark",
      "code": "DK",
      "latitude": 56.0,
      "longitude": 10.0,
      "states": [
        {
          "name": "Capital Region",
          "latitude": 55.83333,
          "longitude": 12.33333
        },
        {
          "name": "Central Jutland",
          "latitude": 56.16667,
          "longitude": 9.5
        },
        {
          "name": "North Denmark",
          "latitude": 57.0,
          "longitude": 9.66667
        },
        {
          "name": "Zealand",
          "latitude": 55.41667,
          "longitude": 11.83333
        },
        {
          "name": "South Denmark",
          "latitude": 55.37911,
          "longitude": 10.345
        }
      ]
    },
    {
      "name": "Dominica",
      "code": "DM",
      "latitude": 15.5,
      "longitude": -61.33333,
      "states": [
        {
          "name": "Saint Peter Parish",
          "latitude": 15.51667,
          "longitude": -61.45
        },
        {
          "name": "Saint Paul Parish",
          "latitude": 15.35,
          "longitude": -61.38333
        },
        {
          "name": "Saint Patrick Parish",
          "latitude": 15.28333,
          "longitude": -61.3
        },
        {
          "name": "Saint Mark Parish",
          "latitude": 15.21667,
          "longitude": -61.36667
        },
        {
          "name": "Saint Luke Parish",
          "latitude": 15.25094,
          "longitude": -61.36726
        },
        {
          "name": "Saint Joseph Parish",
          "latitude": 15.43333,
          "longitude": -61.43333
        },
        {
          "name": "Saint John Parish",
          "latitude": 15.58333,
          "longitude": -61.45
        },
        {
          "name": "Saint George Parish",
          "latitude": 15.3,
          "longitude": -61.36667
        },
        {
          "name": "Saint David Parish",
          "latitude": 15.46667,
          "longitude": -61.28333
        },
        {
          "name": "Saint Andrew Parish",
          "latitude": 15.56667,
          "longitude": -61.36667
        }
      ]
    },
    {
      "name": "Dominican Republic",
      "code": "DO",
      "latitude": 19.0,
      "longitude": -70.66667,
      "states": [
        {
          "name": "Valverde Province",
          "latitude": 19.58333,
          "longitude": -71.05
        },
        {
          "name": "Santiago Rodríguez",
          "latitude": 19.41667,
          "longitude": -71.33333
        },
        {
          "name": "Santiago Province",
          "latitude": 19.31667,
          "longitude": -70.88333
        },
        {
          "name": "San Pedro de Macorís",
          "latitude": 18.5,
          "longitude": -69.33333
        },
        {
          "name": "San Juan Province",
          "latitude": 18.83333,
          "longitude": -71.25
        },
        {
          "name": "San Cristóbal",
          "latitude": 18.55,
          "longitude": -70.2
        },
        {
          "name": "Sánchez Ramírez",
          "latitude": 19.0,
          "longitude": -70.16667
        },
        {
          "name": "Samaná",
          "latitude": 19.25,
          "longitude": -69.45
        },
        {
          "name": "Hermanas Mirabal",
          "latitude": 19.41667,
          "longitude": -70.33333
        },
        {
          "name": "Puerto Plata",
          "latitude": 19.75,
          "longitude": -70.75
        },
        {
          "name": "Peravia",
          "latitude": 18.33333,
          "longitude": -70.36667
        },
        {
          "name": "Pedernales Province",
          "latitude": 18.0,
          "longitude": -71.56667
        },
        {
          "name": "Nacional",
          "latitude": 18.48333,
          "longitude": -69.93333
        },
        {
          "name": "Monte Plata Province",
          "latitude": 18.83333,
          "longitude": -69.83333
        },
        {
          "name": "Monte Cristi Province",
          "latitude": 19.71667,
          "longitude": -71.46667
        },
        {
          "name": "Monseñor Nouel",
          "latitude": 18.91667,
          "longitude": -70.41667
        },
        {
          "name": "María Trinidad Sánchez",
          "latitude": 19.41667,
          "longitude": -70.0
        },
        {
          "name": "La Vega",
          "latitude": 19.05,
          "longitude": -70.65
        },
        {
          "name": "La Romana",
          "latitude": 18.5,
          "longitude": -68.96667
        },
        {
          "name": "La Altagracia Province",
          "latitude": 18.58333,
          "longitude": -68.63333
        },
        {
          "name": "Independencia",
          "latitude": 18.4,
          "longitude": -71.63333
        },
        {
          "name": "Hato Mayor Province",
          "latitude": 18.83333,
          "longitude": -69.33333
        },
        {
          "name": "Espaillat Province",
          "latitude": 19.58333,
          "longitude": -70.41667
        },
        {
          "name": "El Seíbo",
          "latitude": 18.8,
          "longitude": -69.05
        },
        {
          "name": "Elías Piña",
          "latitude": 19.0,
          "longitude": -71.63333
        },
        {
          "name": "Duarte Province",
          "latitude": 19.25,
          "longitude": -70.08333
        },
        {
          "name": "Dajabón",
          "latitude": 19.43333,
          "longitude": -71.58333
        },
        {
          "name": "Barahona Province",
          "latitude": 18.16667,
          "longitude": -71.25
        },
        {
          "name": "Baoruco Province",
          "latitude": 18.5,
          "longitude": -71.35
        },
        {
          "name": "Azua Province",
          "latitude": 18.58333,
          "longitude": -70.8
        },
        {
          "name": "San José de Ocoa",
          "latitude": 18.54882,
          "longitude": -70.50877
        },
        {
          "name": "Santo Domingo Province",
          "latitude": 18.56678,
          "longitude": -69.84874
        }
      ]
    },
    {
      "name": "People's Democratic Republic of Algeria",
      "code": "DZ",
      "latitude": 28.0,
      "longitude": 3.0,
      "states": [
        {
          "name": "Tlemcen",
          "latitude": 34.66667,
          "longitude": -1.41667
        },
        {
          "name": "Tizi Ouzou",
          "latitude": 36.75,
          "longitude": 4.25
        },
        {
          "name": "Tissemsilt",
          "latitude": 35.75,
          "longitude": 1.75
        },
        {
          "name": "Tipaza",
          "latitude": 36.58333,
          "longitude": 2.41667
        },
        {
          "name": "Tindouf",
          "latitude": 27.41667,
          "longitude": -5.83333
        },
        {
          "name": "Tiaret",
          "latitude": 34.91667,
          "longitude": 1.58333
        },
        {
          "name": "Tébessa",
          "latitude": 35.0,
          "longitude": 7.83333
        },
        {
          "name": "Tamanrasset",
          "latitude": 23.55,
          "longitude": 5.18333
        },
        {
          "name": "Souk Ahras",
          "latitude": 36.16667,
          "longitude": 7.91667
        },
        {
          "name": "Skikda",
          "latitude": 36.75,
          "longitude": 6.83333
        },
        {
          "name": "Sidi Bel Abbès",
          "latitude": 34.83333,
          "longitude": -0.5
        },
        {
          "name": "Sétif",
          "latitude": 36.16667,
          "longitude": 5.5
        },
        {
          "name": "Saida",
          "latitude": 34.66667,
          "longitude": 0.33333
        },
        {
          "name": "Relizane",
          "latitude": 35.75,
          "longitude": 0.91667
        },
        {
          "name": "Oum el Bouaghi",
          "latitude": 35.83333,
          "longitude": 7.08333
        },
        {
          "name": "Ouargla",
          "latitude": 30.68333,
          "longitude": 5.26667
        },
        {
          "name": "Oran",
          "latitude": 35.66667,
          "longitude": -0.5
        },
        {
          "name": "Naama",
          "latitude": 33.5,
          "longitude": -0.83333
        },
        {
          "name": "M'Sila",
          "latitude": 35.28333,
          "longitude": 4.25
        },
        {
          "name": "Mostaganem",
          "latitude": 36.0,
          "longitude": 0.33333
        },
        {
          "name": "Mila",
          "latitude": 36.41667,
          "longitude": 6.16667
        },
        {
          "name": "Medea",
          "latitude": 36.08333,
          "longitude": 3.0
        },
        {
          "name": "Mascara",
          "latitude": 35.41667,
          "longitude": 0.16667
        },
        {
          "name": "Laghouat",
          "latitude": 33.58333,
          "longitude": 2.66667
        },
        {
          "name": "Khenchela",
          "latitude": 35.0,
          "longitude": 7.0
        },
        {
          "name": "Jijel",
          "latitude": 36.75,
          "longitude": 6.0
        },
        {
          "name": "Illizi",
          "latitude": 27.9,
          "longitude": 7.95
        },
        {
          "name": "Guelma",
          "latitude": 36.41667,
          "longitude": 7.41667
        },
        {
          "name": "Ghardaia",
          "latitude": 32.45586,
          "longitude": 3.51835
        },
        {
          "name": "El Tarf",
          "latitude": 36.75,
          "longitude": 8.16667
        },
        {
          "name": "El Oued",
          "latitude": 33.18333,
          "longitude": 7.23333
        },
        {
          "name": "El Bayadh",
          "latitude": 32.5,
          "longitude": 1.16667
        },
        {
          "name": "Djelfa",
          "latitude": 34.33333,
          "longitude": 3.66667
        },
        {
          "name": "Constantine",
          "latitude": 36.33333,
          "longitude": 6.66667
        },
        {
          "name": "Chlef",
          "latitude": 36.25,
          "longitude": 1.25
        },
        {
          "name": "Boumerdes",
          "latitude": 36.75,
          "longitude": 3.66667
        },
        {
          "name": "Bouira",
          "latitude": 36.25,
          "longitude": 3.91667
        },
        {
          "name": "Bordj Bou Arréridj",
          "latitude": 36.08333,
          "longitude": 4.75
        },
        {
          "name": "Blida",
          "latitude": 36.58333,
          "longitude": 3.0
        },
        {
          "name": "Biskra",
          "latitude": 34.73333,
          "longitude": 5.91667
        },
        {
          "name": "Béjaïa",
          "latitude": 36.66667,
          "longitude": 4.91667
        },
        {
          "name": "Béchar",
          "latitude": 31.65632,
          "longitude": -2.36701
        },
        {
          "name": "Batna",
          "latitude": 35.5,
          "longitude": 5.91667
        },
        {
          "name": "Annaba",
          "latitude": 36.83333,
          "longitude": 7.58333
        },
        {
          "name": "Algiers",
          "latitude": 36.74053,
          "longitude": 3.00957
        },